{
"results":[
{
"name": "Cable Street Studios",
"address": "566 Cable Street Shadwell London 1W 3HB United Kingdom",
"lat": "51.5115105",
"long": "-0.0426296",
"mem_fav": "54"
}
, {
"name": "The A Lounge",
"address": "66 Trafalgar Square Westminster London WC2N 5DS United Kingdom",
"lat": "51.5072474",
"long": "-0.1284751",
"mem_fav": "1"
}
, {
"name": "Babalou",
"address": "The Crypt St Matthews Church Brixton Hill London SW2 1JF United Kingdom",
"lat": "51.4599453",
"long": "-0.1165009",
"mem_fav": "21"
}
, {
"name": "DAB",
"address": "14 Long Lane EC1A 9PN London United Kingdom",
"lat": "51.5196821",
"long": "-0.0988978",
"mem_fav": "7"
}
, {
"name": "Studio Spaces E1",
"address": "Unit 2 110 Pennington Street Wapping London E1W 2BB United Kingdom",
"lat": "51.5088383",
"long": "-0.061543",
"mem_fav": "211"
}
, {
"name": "Electric Brixton",
"address": "Town Hall Parade Brixton London SW2 1RJ United Kingdom",
"lat": "51.4598359",
"long": "-0.1170324",
"mem_fav": "259"
}
, {
"name": "Bussey Building",
"address": "133 Rye Lane Peckham London SE15 4ST United Kingdom",
"lat": "51.4699252",
"long": "-0.0682831",
"mem_fav": "335"
}
, {
"name": "Tobacco Dock",
"address": "50 Porters Walk, London, E1W 2SF United Kingdom",
"lat": "51.508324",
"long": "-0.0584599",
"mem_fav": "73"
}
, {
"name": "Coronet Theatre",
"address": "28 New Kent Rd Elephant & Castle London SE1 6TJ United Kingdom",
"lat": "51.494356",
"long": "-0.0988919",
"mem_fav": "208"
}
, {
"name": ". Dot",
"address": "9 Kingsland Road Shoreditch London E2 8AA United Kingdom",
"lat": "51.5278077",
"long": "-0.078045",
"mem_fav": "9"
}
, {
"name": "The Social",
"address": "5 Little Portland Street Fitzrovia London W1W 7JD United Kingdom",
"lat": "51.5172521",
"long": "-0.1407694",
"mem_fav": "34"
}
, {
"name": "London Fields",
"address": "137 Mare Street Hackney London E8 3RH United Kingdom",
"lat": "51.5386718",
"long": "-0.0570124",
"mem_fav": "23"
}
, {
"name": "Fire",
"address": "South Lambeth Road Vauxhall London SW8 1UQ United Kingdom",
"lat": "51.4792781",
"long": "-0.1237149",
"mem_fav": "484"
}
, {
"name": "The Qube Project",
"address": "191 Victoria St, London SW1E 5NE, UK United Kingdom",
"lat": "51.4965573",
"long": "-0.1439243",
"mem_fav": "209"
}
, {
"name": "The Castle",
"address": "44 Commercial Road Whitechapel London E1 1LN United Kingdom",
"lat": "51.5148639",
"long": "-0.0694075",
"mem_fav": "19"
}
, {
"name": "Cafe 1001",
"address": "The Old Truman Brewery, 91 Brick Lane Shoreditch London E1 6SE United Kingdom",
"lat": "51.5217064",
"long": "-0.0722893",
"mem_fav": "679"
}
, {
"name": "Vogue Fabrics",
"address": "66 Stoke Newington Road Dalston London N16 7XB United Kingdom",
"lat": "51.5525824",
"long": "-0.0748942",
"mem_fav": "24"
}
, {
"name": "Crystals Nightclub",
"address": "120-122 Whitehorse Ln Thornton Heath SE25 6XB London United Kingdom",
"lat": "51.3990978",
"long": "-0.0863908",
"mem_fav": "0"
}
, {
"name": "Market House",
"address": "443 Coldharbour Lane, Brixton, SW9 8LN United Kingdom",
"lat": "51.4614968",
"long": "-0.1140367",
"mem_fav": "1"
}
, {
"name": "Loft Studios",
"address": "77 - 81 Scrubs Lane London NW10 6QU United Kingdom",
"lat": "51.5285072",
"long": "-0.2358782",
"mem_fav": "233"
}
, {
"name": "The Old Queens Head",
"address": "44 Essex Road Islington London N1 8LN United Kingdom",
"lat": "51.5366272",
"long": "-0.1010892",
"mem_fav": "42"
}
, {
"name": "Egg London",
"address": "200 York Way Kings Cross London N7 9AP United Kingdom",
"lat": "51.5420223",
"long": "-0.1251066",
"mem_fav": "1827"
}
, {
"name": "Bar 512",
"address": "512 Kingsland Road Dalston London E8 4AE United Kingdom",
"lat": "51.5440208",
"long": "-0.0758665",
"mem_fav": "47"
}
, {
"name": "Plan B",
"address": "418 Brixton Road Brixton London SW9 7AY United Kingdom",
"lat": "51.4644481",
"long": "-0.1147263",
"mem_fav": "649"
}
, {
"name": "Brixton Jamm",
"address": "261 Brixton Road Brixton London SW9 6LH United Kingdom",
"lat": "51.4707013",
"long": "-0.1121237",
"mem_fav": "139"
}
, {
"name": "Oslo Hackney",
"address": "1a Amhurst Road, Hackney, London, E8 1LL United Kingdom",
"lat": "51.5479818",
"long": "-0.0575201",
"mem_fav": "30"
}
, {
"name": "93 Feet East",
"address": "The Old Truman Brewery, 150 Brick Lane Shoreditch London E1 6RU United Kingdom",
"lat": "51.5217064",
"long": "-0.0722893",
"mem_fav": "1072"
}
, {
"name": "Islington Metal Works",
"address": "7 Torrens St Angel London EC1V 1NQ United Kingom United Kingdom",
"lat": "51.5324424",
"long": "-0.1051916",
"mem_fav": "51"
}
, {
"name": "Rhythm Factory",
"address": "16-18 Whitechapel Road Whitechapel London E1 1EW United Kingdom",
"lat": "51.5167384",
"long": "-0.0676706",
"mem_fav": "330"
}
, {
"name": "Corsica Studios",
"address": "5 Farrell Court Elephant & Castle London SE17 1LB United Kingdom",
"lat": "51.49403",
"long": "-0.0987",
"mem_fav": "2244"
}
, {
"name": "Club No.65",
"address": "65 Albert Embankment, Vauxhall, London, SE1 7TP United Kingdom",
"lat": "51.4878488",
"long": "-0.1231514",
"mem_fav": "3"
}
, {
"name": "Basing House",
"address": "25 Kingsland Road Shoreditch London E2 8AA United Kingdom",
"lat": "51.5284395",
"long": "-0.0782025",
"mem_fav": "493"
}
, {
"name": "Club 414",
"address": "414 Coldharbour Lane Brixton London SW9 8LF United Kingdom",
"lat": "51.461631",
"long": "-0.1135264",
"mem_fav": "30"
}
, {
"name": "The Lane Bar",
"address": "12-15 Osborne St Brick Lane London E1 6TE United Kingdom",
"lat": "51.5210004",
"long": "-0.0718887",
"mem_fav": "2"
}
, {
"name": "Below 54",
"address": "54-56 Great Eastern Street Broadgate London EC2A 3QR United Kingdom",
"lat": "51.5252205",
"long": "-0.0814969",
"mem_fav": "1"
}
, {
"name": "Copyright Club",
"address": "110 Pennington Street Wapping London E1 9BB United Kingdom",
"lat": "51.5088383",
"long": "-0.061543",
"mem_fav": "1"
}
, {
"name": "Century",
"address": "61-63 Shaftsbury Avenue Soho London W1D 6LD United Kingdom",
"lat": "51.5120408",
"long": "-0.1324052",
"mem_fav": "2"
}
, {
"name": "Life",
"address": "2-4 Old Street Barbican London EC1V 9AA United Kingdom",
"lat": "51.5233566",
"long": "-0.0979078",
"mem_fav": "24"
}
, {
"name": "Bush Hall",
"address": "310 Uxbridge Road Shepherds Bush London W12 7LJ United Kingdom",
"lat": "51.5063396",
"long": "-0.2315885",
"mem_fav": "0"
}
, {
"name": "Worship",
"address": "14-18 Triton Court Moorgate London EC2A 1BR United Kingdom",
"lat": "51.5219361",
"long": "-0.0863197",
"mem_fav": "0"
}
, {
"name": "Rockwell House Roof Garden",
"address": "10-14 Hewett St, London EC2A 3NN United Kingdom",
"lat": "51.5230415",
"long": "-0.0796712",
"mem_fav": "0"
}
, {
"name": "Number Ten",
"address": "10 Golborne Road North Kensington London W10 5PE United Kingdom",
"lat": "51.5239954",
"long": "-0.2063319",
"mem_fav": "1"
}
, {
"name": "The Watershed",
"address": "267 The Broadway Wimbledon London SW19 1SD United Kingdom",
"lat": "51.4192868",
"long": "-0.1946868",
"mem_fav": "1"
}
, {
"name": "The Cuckoos Nest",
"address": "214 High Street Acton London W3 9NX United Kingdom",
"lat": "51.507838",
"long": "-0.2731111",
"mem_fav": "1"
}
, {
"name": "The Funky Munky",
"address": "25 Camberwell Church Street Camberwell London SE5 8TR United Kingdom",
"lat": "51.4740379",
"long": "-0.0903405",
"mem_fav": "5"
}
, {
"name": "The Hippodrome (Kingston)",
"address": "1 St James Road Kingston Upon Thames Surrey KT1 2AH United Kingdom",
"lat": "51.4083835",
"long": "-0.3045628",
"mem_fav": "1"
}
, {
"name": "Supperclub London",
"address": "12 Acklam Road London W10 5QZ United Kingdom",
"lat": "51.5199155",
"long": "-0.2059806",
"mem_fav": "1"
}
, {
"name": "Club Boulevard",
"address": "10 High Street Ealing London W5 5JY United Kingdom",
"lat": "51.5113453",
"long": "-0.3051262",
"mem_fav": "0"
}
, {
"name": "Polka",
"address": "58-59 Poland Street Soho London W1V 3DF United Kingdom",
"lat": "51.5153251",
"long": "-0.1375987",
"mem_fav": "0"
}
, {
"name": "Bar Anam",
"address": "3 Chapel Market Islington London N1 9EZ United Kingdom",
"lat": "51.5335423",
"long": "-0.1099696",
"mem_fav": "4"
}
, {
"name": "Hearn Street Car Park",
"address": "7-11 Hearn St Shoreditch London EC2A 3LS United Kingdom",
"lat": "51.5231054",
"long": "-0.0797162",
"mem_fav": "148"
}
, {
"name": "Shoreditch House",
"address": "Ebor Street, Shoreditch, London E1 6AW United Kingdom",
"lat": "51.5243341",
"long": "-0.0759549",
"mem_fav": "3"
}
, {
"name": "Wenlock And Essex",
"address": "18-26 Essex Road, Islington, London, N1 8LN United Kingdom",
"lat": "51.5366478",
"long": "-0.1012145",
"mem_fav": "0"
}
, {
"name": "Vortex Jazz Club / Vortex Downstairs",
"address": "11 Gillett Square De Beauvoir London N16 8JH United Kingdom",
"lat": "51.54932",
"long": "-0.0765167",
"mem_fav": "8"
}
, {
"name": "Opal Lounge",
"address": "36 Gloucester Road Kensington London SW7 4QT United Kingdom",
"lat": "51.4963615",
"long": "-0.183564",
"mem_fav": "0"
}
, {
"name": "The Book Club",
"address": "100 Leonard Street Shoreditch London EC2A 4RH United Kingdom",
"lat": "51.5245317",
"long": "-0.0817132",
"mem_fav": "83"
}
, {
"name": "Inspiral Lounge",
"address": "250 Camden High Street Camden Town London NW1 8QS United Kingdom",
"lat": "51.5412368",
"long": "-0.1448135",
"mem_fav": "9"
}
, {
"name": "House of Wolf",
"address": "181 Upper Street, Islington, London, N1 United Kingdom",
"lat": "51.5420889",
"long": "-0.1031527",
"mem_fav": "5"
}
, {
"name": "The Fridge Bar",
"address": "1 Town Hall Parade Brixton London SW2 1RJ United Kingdom",
"lat": "51.4598359",
"long": "-0.1170324",
"mem_fav": "10"
}
, {
"name": "Riva Lounge",
"address": "3-7 Bromley Road Catford London SE6 2TS United Kingdom",
"lat": "51.4437966",
"long": "-0.0200957",
"mem_fav": "3"
}
, {
"name": "Paradise",
"address": "19 Kilburn Lane Kensal Green London W10 4AE United Kingdom",
"lat": "51.528834",
"long": "-0.216267",
"mem_fav": "23"
}
, {
"name": "Redstar bar",
"address": "319 Camberwell Rd Camberwell London SE5 0HQ United Kingdom",
"lat": "51.4756759",
"long": "-0.0935058",
"mem_fav": "5"
}
, {
"name": "Living Bar",
"address": "443 Coldharbour Lane Brixton London SW9 8LN United Kingdom",
"lat": "51.4613864",
"long": "-0.1140333",
"mem_fav": "2"
}
, {
"name": "Cirque Du Soir",
"address": "21 Ganton Street Soho London W1S 3BF United Kingdom",
"lat": "51.5115823",
"long": "-0.1403358",
"mem_fav": "12"
}
, {
"name": "Roadtrip",
"address": "243 Old Street Shoreditch London EC1V 9EY United Kingdom",
"lat": "51.5266246",
"long": "-0.0843211",
"mem_fav": "13"
}
, {
"name": "N2O Bar",
"address": "1 Noel Street Soho London W1F 8GA United Kingdom",
"lat": "51.5151868",
"long": "-0.1358642",
"mem_fav": "1"
}
, {
"name": "The Flyover",
"address": "3-5 Thorpe Close, London, W10 5XL United Kingdom",
"lat": "51.5181713",
"long": "-0.2089353",
"mem_fav": "1"
}
, {
"name": "The Attic Bar",
"address": "48th Floor, Pan Peninsula, Canary Wharf, London E14 9HN United Kingdom",
"lat": "51.500045",
"long": "-0.0176872",
"mem_fav": "0"
}
, {
"name": "The Redchurch",
"address": "107 Redchurch Street Shoreditch London E2 7DL United Kingdom",
"lat": "51.5248276",
"long": "-0.0723591",
"mem_fav": "5"
}
, {
"name": "A10",
"address": "267 Kingsland Road Hoxton London E2 8AS United Kingdom",
"lat": "51.5356862",
"long": "-0.0770587",
"mem_fav": "14"
}
, {
"name": "Sub Ember",
"address": "Ember Bar 99-100 Turnmill Street Farringdon London EC1M 5QP United Kingdom",
"lat": "51.5203856",
"long": "-0.1043595",
"mem_fav": "0"
}
, {
"name": "The Light Bar",
"address": "233 Shoreditch High Street Shoreditch London E1 6PJ United Kingdom",
"lat": "51.5219607",
"long": "-0.0782772",
"mem_fav": "152"
}
, {
"name": "The Soho Lounge",
"address": "69 Dean Street Soho London W1D 3SE United Kingdom",
"lat": "51.5136149",
"long": "-0.1324942",
"mem_fav": "6"
}
, {
"name": "The Railway Arches",
"address": "Plough Yard Shoreditch London EC2A 3LP United Kingdom",
"lat": "51.5226014",
"long": "-0.0791056",
"mem_fav": "5"
}
, {
"name": "Garbos",
"address": "84 Victoria Park Rd Cambridge Heath London E9 7JL United Kingdom",
"lat": "51.5372055",
"long": "-0.0490117",
"mem_fav": "0"
}
, {
"name": "Oval Space",
"address": "29-32 The Oval Bethnal Green London E2 9DT United Kingdom",
"lat": "51.5331547",
"long": "-0.0592616",
"mem_fav": "447"
}
, {
"name": "The Dolphin",
"address": "165 Mare Street London Fields London E8 3RH United Kingdom",
"lat": "51.5094333",
"long": "-0.1270317",
"mem_fav": "10"
}
, {
"name": "Miranda Bar",
"address": "100 Shoreditch High Street United Kingdom",
"lat": "51.5257443",
"long": "-0.0772365",
"mem_fav": "0"
}
, {
"name": "Circle Bar",
"address": "348 Clapham Road Clapham London SW9 9AR United Kingdom",
"lat": "51.4678511",
"long": "-0.1284366",
"mem_fav": "4"
}
, {
"name": "Proud Galleries",
"address": "The Horse Hospital Chalk Farm Road Camden Town NW1 8AH United Kingdom",
"lat": "51.5425357",
"long": "-0.1484169",
"mem_fav": "40"
}
, {
"name": "Southbank Centre - Royal Festival Hall",
"address": "Belvedere Road Southwark London SE1 8XT United Kingdom",
"lat": "51.5058987",
"long": "-0.1152074",
"mem_fav": "16"
}
, {
"name": "El Paso",
"address": "350 Old Street Hoxton London EC1V 9NQ United Kingdom",
"lat": "51.5265957",
"long": "-0.0809056",
"mem_fav": "2"
}
, {
"name": "Positively 4th Street",
"address": "119 Hampstead Road Euston London NW1 3EE United Kingdom",
"lat": "51.5293792",
"long": "-0.1387013",
"mem_fav": "1"
}
, {
"name": "The Big Chill House",
"address": "257-259 Pentonville Road Kings Cross London N1 9NL United Kingdom",
"lat": "51.5305763",
"long": "-0.1207038",
"mem_fav": "54"
}
, {
"name": "Floatworks",
"address": "1 Thrale Street London Bridge London SE1 9HW United Kingdom",
"lat": "51.5078788",
"long": "-0.0877321",
"mem_fav": "1"
}
, {
"name": "The Shadow Lounge Soho",
"address": "5 Brewer Street Soho London W1F 0RF United Kingdom",
"lat": "51.5124269",
"long": "-0.1335529",
"mem_fav": "3"
}
, {
"name": "St John at Hackney",
"address": "Lower Clapton Road, London, E5 0PD United Kingdom",
"lat": "51.5508265",
"long": "-0.051724",
"mem_fav": "32"
}
, {
"name": "Release Nightclub",
"address": "23 Lewisham Way New Cross London SE14 6PP United Kingdom",
"lat": "51.4752345",
"long": "-0.0352272",
"mem_fav": "1"
}
, {
"name": "BFI Southbank",
"address": "Belvedere Road Southwark London SE1 8XT United Kingdom",
"lat": "51.5058987",
"long": "-0.1152074",
"mem_fav": "9"
}
, {
"name": "New Cross Inn",
"address": "323 New Cross Road New Cross London SE14 6AS United Kingdom",
"lat": "51.4757733",
"long": "-0.0370792",
"mem_fav": "7"
}
, {
"name": "The Borderline",
"address": "16 Manette Street Soho London W1V 5LB United Kingdom",
"lat": "51.5148193",
"long": "-0.1303009",
"mem_fav": "5"
}
, {
"name": "Resistance Gallery",
"address": "265 Poyser Street Bethnal Green London E2 9RF United Kingdom",
"lat": "51.5300668",
"long": "-0.0569096",
"mem_fav": "10"
}
, {
"name": "Mish Mash",
"address": "45 Lavender Hill Clapham London SW11 5RQ United Kingdom",
"lat": "51.4660094",
"long": "-0.1517922",
"mem_fav": "0"
}
, {
"name": "Netil 360",
"address": "1 Westgate Street London, Hackney E8 3RL United Kingdom",
"lat": "51.537772",
"long": "-0.0576885",
"mem_fav": "1"
}
, {
"name": "Green and Red Bar basement",
"address": "51 Bethnal Green Rd Bethnal Green London E2 6LA United Kingdom",
"lat": "51.5247404",
"long": "-0.0726212",
"mem_fav": "2"
}
, {
"name": "Netil House",
"address": "1 Westgate Street London Fields London E8 3RL United Kingdom",
"lat": "51.4864281",
"long": "-0.1885118",
"mem_fav": "44"
}
, {
"name": "Lati-Ri Cafe",
"address": "Rivington House Rivington Place Shoreditch London EC2A 3BE United Kingdom",
"lat": "51.5265293",
"long": "-0.0795965",
"mem_fav": "1"
}
, {
"name": "Scrutton Street Warehouse",
"address": "73-75 Scrutton Street Shoreditch London EC2A 4PJ United Kingdom",
"lat": "51.5239004",
"long": "-0.0807802",
"mem_fav": "18"
}
, {
"name": "Cafe De Paris",
"address": "3 Coventry Street St. James London W1D 6BL United Kingdom",
"lat": "51.5101965",
"long": "-0.1333659",
"mem_fav": "10"
}
, {
"name": "Club Mother F*cker",
"address": "22 Highbury Corner Islington London N5 1RD United Kingdom",
"lat": "51.5465795",
"long": "-0.104127",
"mem_fav": "4"
}
, {
"name": "Shaka Zulu",
"address": "The Stables Market Camden Town London NW1 8AH United Kingdom",
"lat": "51.5422348",
"long": "-0.148318",
"mem_fav": "3"
}
, {
"name": "Hewitt Street Car Park",
"address": "Corner of Hearn Street and Plough Yard Shoreditch London EC2A 3LS United Kingdom",
"lat": "51.5226716",
"long": "-0.0801481",
"mem_fav": "46"
}
, {
"name": "Hoxton Hall",
"address": "130 Hoxton Street London N1 6SH United Kingdom",
"lat": "51.5317655",
"long": "-0.0800497",
"mem_fav": "0"
}
, {
"name": "Camden Rock",
"address": "18 Kentish Town Road Camden Town London NW1 9NX United Kingdom",
"lat": "51.5397543",
"long": "-0.1423411",
"mem_fav": "4"
}
, {
"name": "Baraza",
"address": "561 Garratt Lane Earlsfield London SW18 4SR United Kingdom",
"lat": "51.4406619",
"long": "-0.1867373",
"mem_fav": "0"
}
, {
"name": "Isha",
"address": "43 Richmond Road Kingston Upon Thames Greater London KT2 5BW United Kingdom",
"lat": "51.4142402",
"long": "-0.3008364",
"mem_fav": "4"
}
, {
"name": "Camino",
"address": "28 Westferry Circus Isle Of Dogs London E14 8RR United Kingdom",
"lat": "51.5058667",
"long": "-0.0273791",
"mem_fav": "0"
}
, {
"name": "Avalon Soho",
"address": "39-45 Shaftesbury Avenue, W1D 6LA London, United Kingdom",
"lat": "51.5117714",
"long": "-0.1327957",
"mem_fav": "0"
}
, {
"name": "The George Orwell",
"address": "382 Essex Road Islington London N1 3PF United Kingdom",
"lat": "51.5450129",
"long": "-0.0883061",
"mem_fav": "3"
}
, {
"name": "Electricity Showrooms",
"address": "39a Hoxton Square Hoxton London N1 6NN United Kingdom",
"lat": "51.5273483",
"long": "-0.0804436",
"mem_fav": "14"
}
, {
"name": "6ft Anda",
"address": "42-44 Kingsland Road Shoreditch London E2 8DA United Kingdom",
"lat": "51.5277577",
"long": "-0.0777283",
"mem_fav": "3"
}
, {
"name": "Shunt",
"address": "20 Stainer St London Bridge London SE1 9RL United Kingdom",
"lat": "51.5069101",
"long": "-0.0880085",
"mem_fav": "20"
}
, {
"name": "Charlie Wrights International Bar",
"address": "45 Pitfield St Hoxton London N1 6DA United Kingdom",
"lat": "51.5276558",
"long": "-0.083714",
"mem_fav": "7"
}
, {
"name": "The Others",
"address": "6-8 Manor Road Stoke Newington London N16 5SA United Kingdom",
"lat": "51.5659049",
"long": "-0.0747566",
"mem_fav": "5"
}
, {
"name": "The Telegraph",
"address": "228 Brixton Hill Brixton London SW2 1HE United Kingdom",
"lat": "51.4487435",
"long": "-0.1239969",
"mem_fav": "7"
}
, {
"name": "Brixton Bar & Grill",
"address": "15 Atlantic Road Coldharbour Lane London SW9 8HX United Kingdom",
"lat": "51.4630917",
"long": "-0.1074204",
"mem_fav": "1"
}
, {
"name": "The Retreat",
"address": "144 Upper Street Islington London N1 1QY United Kingdom",
"lat": "51.5398932",
"long": "-0.102567",
"mem_fav": "0"
}
, {
"name": "8 Club",
"address": "1 Dysart Street Moorgate London EC2A 2BX United Kingdom",
"lat": "51.5196186",
"long": "-0.0870704",
"mem_fav": "4"
}
, {
"name": "Shebeen",
"address": "183 High Street Acton London W3 9DJ United Kingdom",
"lat": "51.5073477",
"long": "-0.271896",
"mem_fav": "0"
}
, {
"name": "Grand Central",
"address": "93 Great Eastern Street Shoreditch London EC2A 3HZ United Kingdom",
"lat": "51.5258278",
"long": "-0.0833856",
"mem_fav": "5"
}
, {
"name": "Jrink",
"address": "62 Frith Street Soho London W1D 3JN United Kingdom",
"lat": "51.5143468",
"long": "-0.1321106",
"mem_fav": "1"
}
, {
"name": "Pacha London",
"address": "Terminus Place Victoria London SW1V 1JR United Kingdom",
"lat": "51.4961467",
"long": "-0.1433119",
"mem_fav": "305"
}
, {
"name": "EQ Arena",
"address": "East Cross Centre Waterden Road Hackney Wick London E15 2HN United Kingdom",
"lat": "51.5152823",
"long": "-0.0573695",
"mem_fav": "4"
}
, {
"name": "The Drunken Monkey",
"address": "222 Shoreditch High Street Shoreditch London E1 6PJ United Kingdom",
"lat": "51.5223434",
"long": "-0.0780275",
"mem_fav": "19"
}
, {
"name": "E3sence",
"address": "562 Mile End Road Bow London E3 4PH United Kingdom",
"lat": "51.5254342",
"long": "-0.0327482",
"mem_fav": "0"
}
, {
"name": "Babble.jar",
"address": "176 Stoke Newington High Street Stoke Newington London N16 7JL United Kingdom",
"lat": "51.5612228",
"long": "-0.0735762",
"mem_fav": "2"
}
, {
"name": "Rich Mix",
"address": "35-47 Bethnal Green Road Bethnal Green London E1 6LA United Kingdom",
"lat": "51.5242313",
"long": "-0.0738117",
"mem_fav": "18"
}
, {
"name": "The Edinburgh Cellars",
"address": "125 Newington Green Road Stoke Newington London N1 4RA United Kingdom",
"lat": "51.5505477",
"long": "-0.0864473",
"mem_fav": "4"
}
, {
"name": "Art House Studio",
"address": "1 Maverton Road London E32JE United Kingdom",
"lat": "51.5352609",
"long": "-0.0232827",
"mem_fav": "2"
}
, {
"name": "New Empowering Church",
"address": "1a Westgate Street London Fields London E8 3RL United Kingdom",
"lat": "51.4864281",
"long": "-0.1885118",
"mem_fav": "24"
}
, {
"name": "The Garage",
"address": "20-22 Highbury Corner Highbury N5 1RD United Kingdom",
"lat": "51.5465795",
"long": "-0.104127",
"mem_fav": "33"
}
, {
"name": "The Departure",
"address": "2 Crutched Friars Aldgate London EC3N 2HT United Kingdom",
"lat": "51.5135685",
"long": "-0.0764656",
"mem_fav": "6"
}
, {
"name": "Apples & Pears",
"address": "26 Osborn Street Brick Lane London E1 6TD United Kingdom",
"lat": "51.5210004",
"long": "-0.0718887",
"mem_fav": "14"
}
, {
"name": "BGs Nite Club",
"address": "71 Shacklewell Lane Dalston London E8 4BD United Kingdom",
"lat": "51.5524062",
"long": "-0.0712748",
"mem_fav": "7"
}
, {
"name": "Hi Sushi Salsa",
"address": "3a Camden Wharf Camden Town London NW1 7BY United Kingdom",
"lat": "51.5403249",
"long": "-0.1455147",
"mem_fav": "1"
}
, {
"name": "Sun and Thirteen Cantons",
"address": "21 Great Pulteney Street Soho London W1F 9NG United Kingdom",
"lat": "51.5126292",
"long": "-0.1366038",
"mem_fav": "0"
}
, {
"name": "Art Bar",
"address": "87-89 Walton Street Chelsea London SW3 2HP United Kingdom",
"lat": "51.4943547",
"long": "-0.1674383",
"mem_fav": "1"
}
, {
"name": "22Below",
"address": "22 Great Marlborough Street Soho London W1F 7HU United Kingdom",
"lat": "51.5141874",
"long": "-0.1398052",
"mem_fav": "2"
}
, {
"name": "Hed Kandi Bar",
"address": "38 Clapham High Street Clapham London SW4 7UR United Kingdom",
"lat": "51.4644009",
"long": "-0.1320042",
"mem_fav": "6"
}
, {
"name": "Qt Cocktail Bar",
"address": "8-9 Hoxton Square Shoreditch London N1 6NU United Kingdom",
"lat": "51.5277797",
"long": "-0.0818218",
"mem_fav": "1"
}
, {
"name": "Electric Social",
"address": "40 Acre Lane Brixton London SW2 5SP United Kingdom",
"lat": "51.460439",
"long": "-0.1192083",
"mem_fav": "12"
}
, {
"name": "The Cross Kings",
"address": "126 York Way Kings Cross London N1 0AX United Kingdom",
"lat": "51.53675",
"long": "-0.1220079",
"mem_fav": "4"
}
, {
"name": "Gallery",
"address": "407 - 411 Hendon Way Hendon London NW4 3LH United Kingdom",
"lat": "51.5820538",
"long": "-0.227339",
"mem_fav": "6"
}
, {
"name": "Mv Valulla",
"address": "Westminster Pier Victoria Embankment London SW1A 2JH United Kingdom",
"lat": "51.5016465",
"long": "-0.1238556",
"mem_fav": "0"
}
, {
"name": "BR1",
"address": "237-239 High Street Bromley Greater London BR1 1NZ United Kingdom",
"lat": "51.4067944",
"long": "0.0122646",
"mem_fav": "0"
}
, {
"name": "The Driver",
"address": "2-4 Wharfdale Road Kings Cross London N1 9RY United Kingdom",
"lat": "51.5336642",
"long": "-0.1192357",
"mem_fav": "6"
}
, {
"name": "AAA",
"address": "11-13 Kensington High Street, W8 5NP United Kingdom",
"lat": "51.5022892",
"long": "-0.1878657",
"mem_fav": "0"
}
, {
"name": "CinÃ© LumiÃ¨re At The Institut FranÃ§ais",
"address": "17 Queensberry Place Kingsbury London SW7 2DT United Kingdom",
"lat": "51.494563",
"long": "-0.1772167",
"mem_fav": "1"
}
, {
"name": "RS Lounge",
"address": "Woodford New Road Epping Forest London E17 3PR United Kingdom",
"lat": "51.5902506",
"long": "0.0082123",
"mem_fav": "3"
}
, {
"name": "The Macbeth",
"address": "70 Hoxton Street Hoxton London N1 6LP United Kingdom",
"lat": "51.530297",
"long": "-0.08013",
"mem_fav": "43"
}
, {
"name": "Jalouse",
"address": "17 Hanover Square Mayfair London W1S IHU United Kingdom",
"lat": "51.5141518",
"long": "-0.144251",
"mem_fav": "6"
}
, {
"name": "The Horatia",
"address": "98-102 Holloway Road Lower Holloway London N7 8JE United Kingdom",
"lat": "51.5499721",
"long": "-0.1085042",
"mem_fav": "14"
}
, {
"name": "Masque Bar",
"address": "24 York Way Kings Cross London N1 9AA United Kingdom",
"lat": "51.5305335",
"long": "-0.1220256",
"mem_fav": "2"
}
, {
"name": "CLF Arts Cafe",
"address": "133 Rye Lane, london, Peckham, SE15 4ST United Kingdom",
"lat": "51.4699252",
"long": "-0.0682831",
"mem_fav": "1"
}
, {
"name": "Satchmos",
"address": "97 Stoke Newington Road Stoke Newington London N16 8BX United Kingdom",
"lat": "51.5543963",
"long": "-0.074941",
"mem_fav": "1"
}
, {
"name": "The Camden Arms",
"address": "1 Randolph Street Camden Town London NW1 0SS United Kingdom",
"lat": "51.5417081",
"long": "-0.1360332",
"mem_fav": "3"
}
, {
"name": "Hospital Club",
"address": "24 Endell Steet Covent Garden London WC2H 9HQ United Kingdom",
"lat": "51.5148466",
"long": "-0.124788",
"mem_fav": "2"
}
, {
"name": "The Bedford",
"address": "77 Bedford Hill Balham London SW12 9HD United Kingdom",
"lat": "51.4420906",
"long": "-0.1490311",
"mem_fav": "0"
}
, {
"name": "Undersolo",
"address": "20 Inverness Street Camden Town London NW1 7HJ United Kingdom",
"lat": "51.5394662",
"long": "-0.1441476",
"mem_fav": "2"
}
, {
"name": "The Albany",
"address": "240 Great Portland St Fitzrovia London W1W 5QU, United Kingdom",
"lat": "51.5233985",
"long": "-0.1440342",
"mem_fav": "1"
}
, {
"name": "Hoxton Square Bar & Kitchen",
"address": "2-4 Hoxton Square Hoxton London N1 6NU United Kingdom",
"lat": "51.5277797",
"long": "-0.0818218",
"mem_fav": "56"
}
, {
"name": "Nobu Restaurant",
"address": "Berkeley St, 15 Berkeley Street, London W1J 8DY, United Kingdom",
"lat": "51.5084509",
"long": "-0.1433683",
"mem_fav": "1"
}
, {
"name": "Anatolia Bar",
"address": "253 Mare Street London Fields London E8 3NS United Kingdom",
"lat": "51.5094333",
"long": "-0.1270317",
"mem_fav": "1"
}
, {
"name": "Euphoriom Nightclub",
"address": "1-3 High Street Acton London W3 6NG United Kingdom",
"lat": "51.5063922",
"long": "-0.2646296",
"mem_fav": "4"
}
, {
"name": "iCAN Studios",
"address": "35 Monier Road London E3 2PR United Kingdom",
"lat": "51.5390969",
"long": "-0.0245982",
"mem_fav": "81"
}
, {
"name": "Souk",
"address": "165 Clapham High Street Clapham London SW4 755 United Kingdom",
"lat": "51.4621586",
"long": "-0.1363282",
"mem_fav": "2"
}
, {
"name": "Bloomsbury Ballroom",
"address": "37-63 Bloomsbury Sq Bloomsbury London WC1B 4DA United Kingdom",
"lat": "51.5176238",
"long": "-0.1273749",
"mem_fav": "3"
}
, {
"name": "The Red Rooms",
"address": "4 Great Queen Street Holborn London WC2B 5DG United Kingdom",
"lat": "51.5162551",
"long": "-0.1199887",
"mem_fav": "1"
}
, {
"name": "The Spitz",
"address": "109 Commercial Street Shoreditch London E1 6BG, . United Kingdom",
"lat": "51.5196798",
"long": "-0.0746254",
"mem_fav": "3"
}
, {
"name": "Guanabara",
"address": "Parker Street Holborn London WC2B 5PW United Kingdom",
"lat": "51.5159787",
"long": "-0.1213273",
"mem_fav": "10"
}
, {
"name": "The Prince Bonaparte",
"address": "80 Chepstow Road Notting Hill London W2 5BE United Kingdom",
"lat": "51.5151072",
"long": "-0.1940775",
"mem_fav": "0"
}
, {
"name": "The Good Ship",
"address": "289 Kilburn High Road Kilburn London NW6 7JR United Kingdom",
"lat": "51.5438176",
"long": "-0.2003914",
"mem_fav": "0"
}
, {
"name": "Embassy",
"address": "29 Old Burlington St Mayfair London W1S 3AN United Kingdom",
"lat": "51.5106077",
"long": "-0.1412546",
"mem_fav": "4"
}
, {
"name": "The Bridge",
"address": "Weston Street Borough London SE1 3QX United Kingdom",
"lat": "51.5031672",
"long": "-0.0854205",
"mem_fav": "6"
}
, {
"name": "Union Car Park",
"address": "29-31 Great Suffolk Street Blackfriars London SE1 0NS United Kingdom",
"lat": "51.5032923",
"long": "-0.1012404",
"mem_fav": "40"
}
,  {
"name": "The Den & Centro",
"address": "18a West Central Street Covent Garden London WC1A 1JJ United Kingdom",
"lat": "51.516732",
"long": "-0.125168",
"mem_fav": "41"
}
, {
"name": "Madame Jo Jos",
"address": "8-10 Brewer Street Soho London W1F 0SE United Kingdom",
"lat": "51.5125286",
"long": "-0.1338058",
"mem_fav": "32"
}
, {
"name": "The Hive Project",
"address": "Unit 2A Queens Yard, White Post Lane Hackney Wick E9 5EN United Kingdom",
"lat": "51.5429561",
"long": "-0.0231367",
"mem_fav": "7"
}
, {
"name": "Yard",
"address": "140 Tabernacle Street Shoreditch London EC2A 4SD United Kingdom",
"lat": "51.5257905",
"long": "-0.0840498",
"mem_fav": "2"
}
, {
"name": "Corbet Place",
"address": "15 Hanbury Street Shoreditch London E1 6QR United Kingdom",
"lat": "51.5202269",
"long": "-0.0731013",
"mem_fav": "21"
}
, {
"name": "The Lodge Bar",
"address": "226 High Street Harlsden London NW10 4TD United Kingdom",
"lat": "51.533447",
"long": "-0.2410791",
"mem_fav": "3"
}
, {
"name": "Nine Bar",
"address": "146 Tanner Street Tower Bridge London SE1 2HG United Kingdom",
"lat": "51.5004035",
"long": "-0.0723239",
"mem_fav": "10"
}
, {
"name": "Gibson Hall",
"address": "13 Bishopsgate The City London EC2N 3BA United Kingdom",
"lat": "51.5145563",
"long": "-0.0836272",
"mem_fav": "1"
}
, {
"name": "Punk",
"address": "14 Soho Street Soho London W1D 3DN United Kingdom",
"lat": "51.5160791",
"long": "-0.1328156",
"mem_fav": "8"
}
, {
"name": "Sin",
"address": "144 Charing Cross Road Soho London WC2 H0LB United Kingdom",
"lat": "51.5155215",
"long": "-0.1300108",
"mem_fav": "2"
}
, {
"name": "Relay",
"address": "Cable 33a Bermondsey Street Tunnel London Bridge London SE1 3JW United Kingdom",
"lat": "51.5078788",
"long": "-0.0877321",
"mem_fav": "35"
}
, {
"name": "Arch 269",
"address": "269 Coldharbour Lane Herne Hil London SW9 8SE United Kingdom",
"lat": "51.4641401",
"long": "-0.1048984",
"mem_fav": "13"
}
, {
"name": "The Monarch",
"address": "40-42 Chalk Farm Road Camden Town London NW1 8BG United Kingdom",
"lat": "51.5429802",
"long": "-0.1484164",
"mem_fav": "0"
}
, {
"name": "The Drop",
"address": "Three Crowns Basement 175 Stoke Newington High Street Stoke Newington London N16 0LH United Kingdom",
"lat": "51.5620231",
"long": "-0.0737678",
"mem_fav": "42"
}
, {
"name": "Chinawhite",
"address": "6 Air Street Soho London W1B 5AA United Kingdom",
"lat": "51.5102915",
"long": "-0.1365583",
"mem_fav": "7"
}
, {
"name": "Club Colosseum",
"address": "1 Nine Elms Lane South Lambeth London SW8 5NQ United Kingdom",
"lat": "51.4848003",
"long": "-0.1282488",
"mem_fav": "19"
}
, {
"name": "Tate Modern",
"address": "Bankside Southwark London SE1 9TG United Kingdom",
"lat": "51.5055153",
"long": "-0.095491",
"mem_fav": "25"
}
, {
"name": "Basement Sate",
"address": "8 Broadwick Street, London, W1F 8HN United Kingdom",
"lat": "51.5140589",
"long": "-0.1349024",
"mem_fav": "0"
}
, {
"name": "43 South Molton",
"address": "43 South Molton Street Mayfair London W1K 5RS United Kingdom",
"lat": "51.5139855",
"long": "-0.1483157",
"mem_fav": "1"
}
, {
"name": "Two 8 Six",
"address": "286 Lewisham High Street London SE13 6JZ United Kingdom",
"lat": "51.4574658",
"long": "-0.0135865",
"mem_fav": "0"
}
, {
"name": "Comedy Cafe",
"address": "66/68 Rivington Street Hoxton London EC2A 3AY United Kingdom",
"lat": "51.5262007",
"long": "-0.0795033",
"mem_fav": "1"
}
, {
"name": "No5 Cavendish Square",
"address": "5 Cavendish Square Marylebone London W1G 0PG United Kingdom",
"lat": "51.5166308",
"long": "-0.1439785",
"mem_fav": "10"
}
, {
"name": "Platform Cafe",
"address": "1 Westgate Street London Fields London E8 3RL United Kingdom",
"lat": "51.4864281",
"long": "-0.1885118",
"mem_fav": "2"
}
, {
"name": "E:vent Gallery",
"address": "96 Teesdale Street Bethnal Green London E2 6PU United Kingdom",
"lat": "51.5298393",
"long": "-0.0614232",
"mem_fav": "0"
}
, {
"name": "Funky Buddha",
"address": "15 Berkeley Street Mayfair London W1J 8DY United Kingdom",
"lat": "51.5084509",
"long": "-0.1433683",
"mem_fav": "14"
}
, {
"name": "Albert & Pearl",
"address": "181 Upper Street Islington London N1 1RQ United Kingdom",
"lat": "51.5420889",
"long": "-0.1031527",
"mem_fav": "1"
}
, {
"name": "Puregroove Records",
"address": "6-7 West Smithfield Farringdon London EC1A 9JX United Kingdom",
"lat": "51.5184874",
"long": "-0.1020888",
"mem_fav": "3"
}
, {
"name": "Park Avenue",
"address": "3 Hill Rise Richmond Greater London TW10 6UQ United Kingdom",
"lat": "51.457962",
"long": "-0.3052501",
"mem_fav": "0"
}
, {
"name": "Bar Music Hall",
"address": "134-146 Curtain Road Shoreditch London EC2A United Kingdom",
"lat": "51.5266431",
"long": "-0.0802587",
"mem_fav": "39"
}
, {
"name": "National Film Theatre",
"address": "Belvedere Road Waterloo London SE1 8XT United Kingdom",
"lat": "51.5058987",
"long": "-0.1152074",
"mem_fav": "3"
}
, {
"name": "Toynbee Studios",
"address": "28 Commercial Street Aldgate London E1 6AB United Kingdom",
"lat": "51.5150469",
"long": "-0.0675934",
"mem_fav": "0"
}
, {
"name": "Fortress Studios",
"address": "34-38 Provost St Shoreditch London N1 7NG United Kingdom",
"lat": "51.5285677",
"long": "-0.0884485",
"mem_fav": "6"
}
, {
"name": "The Scolt Head",
"address": "107a Culford Road Haggerston London N1 4HT United Kingdom",
"lat": "51.5438634",
"long": "-0.0815781",
"mem_fav": "3"
}
, {
"name": "Fairchild",
"address": "Fairchild place Shoreditch London EC2N 3EN United Kingdom",
"lat": "51.5228816",
"long": "-0.0785482",
"mem_fav": "35"
}
, {
"name": "Ridley Road Market Bar",
"address": "49 Ridley Road London E8 2NP United Kingdom",
"lat": "51.5481934",
"long": "-0.073243",
"mem_fav": "8"
}
, {
"name": "The Green Room",
"address": "45a Goldhawk Road Shepherds Bush London W12 8JH United Kingdom",
"lat": "51.502481",
"long": "-0.2256405",
"mem_fav": "0"
}
, {
"name": "Goethe Institute",
"address": "50 Princes Gate Knightsbridge London SW7 2PH United Kingdom",
"lat": "51.4996251",
"long": "-0.1741733",
"mem_fav": "1"
}
, {
"name": "Troy Bar",
"address": "10 Hoxton St Hoxton London N1 6NG United Kingdom",
"lat": "51.5276306",
"long": "-0.0801293",
"mem_fav": "3"
}
, {
"name": "Seager Storage Units",
"address": "29-31 Great Suffolk St Sotuhwark London SE1 0NS United Kingdom",
"lat": "51.5047523",
"long": "-0.1013195",
"mem_fav": "8"
}
, {
"name": "Raving Buddha",
"address": "77 Goldhawk Road Shepherds Bush London W12 8EG United Kingdom",
"lat": "51.5020331",
"long": "-0.2276475",
"mem_fav": "9"
}
, {
"name": "Halo Bar",
"address": "317 Battersea Park Road Battersea London SW11 4LT United Kingdom",
"lat": "51.4745103",
"long": "-0.1548402",
"mem_fav": "1"
}
, {
"name": "Ivory Lounge",
"address": "167 Broadway Bexleyheath Greater London DA6 7ES United Kingdom",
"lat": "51.45693",
"long": "0.1408419",
"mem_fav": "0"
}
, {
"name": "White Rabbit",
"address": "125 Stoke Newington Church St London N16 0UH United Kingdom",
"lat": "51.5619875",
"long": "-0.0805223",
"mem_fav": "0"
}
, {
"name": "The Griffin",
"address": "93 Leonard Street Shoreditch London EC2A 4RD United Kingdom",
"lat": "51.5250052",
"long": "-0.0816285",
"mem_fav": "4"
}
, {
"name": "Water Rats",
"address": "328 Grays Inn Road Bloomsbury London WC1X 8BZ United Kingdom",
"lat": "51.5243785",
"long": "-0.1159264",
"mem_fav": "3"
}
, {
"name": "Fluid",
"address": "40 Charterhouse Street Farringdon London EC1M 6JN United Kingdom",
"lat": "51.5201944",
"long": "-0.1003339",
"mem_fav": "27"
}
,  {
"name": "Babel",
"address": "3 - 7 Northcote Road Clapham Common London SW11 1NG United Kingdom",
"lat": "51.4578309",
"long": "-0.1481652",
"mem_fav": "2"
}
, {
"name": "The Grand Junction Arms",
"address": "Canal Bridge Harlesden London NW10 7AD United Kingdom",
"lat": "51.5344515",
"long": "-0.2605925",
"mem_fav": "8"
}
, {
"name": "The Electric Birdcage",
"address": "11 Haymarket St Jamess London SW1Y 4BP United Kingdom",
"lat": "51.5088011",
"long": "-0.1316874",
"mem_fav": "1"
}
, {
"name": "Dixie Queen Paddle Steamer",
"address": "Tower Pier Lower Thames River the City London EC3N 4DT United Kingdom",
"lat": "51.5073028",
"long": "-0.0790217",
"mem_fav": "1"
}
, {
"name": "The Chocolate Lounge",
"address": "146-148 Newington Butts Kennington London SE11 4RN United Kingdom",
"lat": "51.4909696",
"long": "-0.1037217",
"mem_fav": "0"
}
, {
"name": "Area",
"address": "67 Albert Embankment Vauxhall London SE1 7TP United Kingdom",
"lat": "51.4879382",
"long": "-0.1231775",
"mem_fav": "96"
}
, {
"name": "The Bowery",
"address": "36 - 38 New Oxford Street Bloomsbury London WC1A 1EP United Kingdom",
"lat": "51.5171667",
"long": "-0.126214",
"mem_fav": "0"
}
, {
"name": "Crazy Larrys",
"address": "533 Kings Road West Brompton London SW10 0TZ United Kingdom",
"lat": "51.4938222",
"long": "-0.16884",
"mem_fav": "0"
}
, {
"name": "Amber Bar Soho",
"address": "6 Poland Street Soho London W1F 8PS United Kingdom",
"lat": "51.514079",
"long": "-0.1365148",
"mem_fav": "1"
}
, {
"name": "Nambucca",
"address": "596 Holloway Road Holloway London N7 6LB United Kingdom",
"lat": "51.5609729",
"long": "-0.1236348",
"mem_fav": "3"
}
, {
"name": "Islington Bar",
"address": "342 Caledonian Rd Islington London N1 1BB United Kingdom",
"lat": "51.5401427",
"long": "-0.1166757",
"mem_fav": "1"
}
, {
"name": "Infernos",
"address": "146 Clapham High St Clapham London SW4 7UH United Kingdom",
"lat": "51.4626243",
"long": "-0.1358147",
"mem_fav": "2"
}
, {
"name": "Cafe Cairo",
"address": "88 Landor Road Stockwell London SW9 9PE United Kingdom",
"lat": "51.4659308",
"long": "-0.1250866",
"mem_fav": "4"
}
, {
"name": "El PeÃ±ol",
"address": "382-384 Brixton Road Stockwell London SW9 7AW United Kingdom",
"lat": "51.46564",
"long": "-0.1139238",
"mem_fav": "1"
}
, {
"name": "Concrete",
"address": "56 Shoreditch High Street Shoreditch London E1 6JJ United Kingdom",
"lat": "51.5236783",
"long": "-0.0764637",
"mem_fav": "35"
}
, {
"name": "The Pelican",
"address": "45 All Saints Road Notting Hill London W11 1HE United Kingdom",
"lat": "51.5188329",
"long": "-0.2046975",
"mem_fav": "2"
}
, {
"name": "Aquum Bar And Restaurant",
"address": "68-70 Clapham High Street Clapham Common London SW4 7UL United Kingdom",
"lat": "51.462377",
"long": "-0.137115",
"mem_fav": "4"
}
, {
"name": "Catch",
"address": "22 Kingsland Road Shoreditch London E2 8DA United Kingdom",
"lat": "51.5276964",
"long": "-0.0779527",
"mem_fav": "37"
}
, {
"name": "Metropolis",
"address": "234 Cambridge Heath Road Bethnal Green London E9 2NN United Kingdom",
"lat": "51.5324351",
"long": "-0.0568519",
"mem_fav": "12"
}
]
}
